{
  "places": [
    {
      "name": "Sychar",
      "lat": 32.2079,
      "lng": 35.2841,
      "description": "A Samaritan town near the plot of ground Jacob gave to his son Joseph. Identified with Askar, on the eastern slope of Mount Ebal, near Jacob's Well."
    },
    {
      "name": "Jacob's Well",
      "lat": 32.2073,
      "lng": 35.2818,
      "description": "A well dug by the patriarch Jacob at the foot of Mount Gerizim, approximately 32 meters deep. Continuously venerated since the 4th century AD. Now located within an Eastern Orthodox church at Tell Balata."
    },
    {
      "name": "Mount Gerizim",
      "lat": 32.1985,
      "lng": 35.2768,
      "description": "The sacred mountain of the Samaritans, where they built their rival temple to Jerusalem's. The woman at the well referred to this mountain in John 4:20: \u201cOur ancestors worshiped on this mountain.\u201d"
    },
    {
      "name": "Shechem",
      "lat": 32.2079,
      "lng": 35.2841,
      "description": "Ancient Canaanite city at the base of Mount Ebal and Mount Gerizim. Abraham camped here (Gen 12:6). Jacob bought land here (Gen 33:19). Identified with Tell Balata in modern Nablus."
    },
    {
      "name": "Jerusalem",
      "lat": 31.7781,
      "lng": 35.2354,
      "description": "The holy city, capital of Judah, site of the Temple and of Jesus\u2019 passion, death, and resurrection. Center of Jewish religious life in the first century."
    },
    {
      "name": "Temple Mount",
      "lat": 31.7781,
      "lng": 35.2360,
      "description": "The platform on which Herod\u2019s Temple stood. The largest religious enclosure in the ancient world, measuring roughly 36 acres. Destroyed by Rome in 70 AD."
    },
    {
      "name": "Bethlehem",
      "lat": 31.7054,
      "lng": 35.2024,
      "description": "City of David, birthplace of Jesus (Matt 2:1, Luke 2:4\u20137). Located about 10 km south of Jerusalem in the Judean hills."
    },
    {
      "name": "Nazareth",
      "lat": 32.6996,
      "lng": 35.2956,
      "description": "The hometown of Jesus and Mary and Joseph (Luke 2:39, 4:16). A small Galilean village in the first century, now a city of over 70,000. Jesus was rejected here (Luke 4:28\u201330)."
    },
    {
      "name": "Capernaum",
      "lat": 32.8806,
      "lng": 35.5752,
      "description": "Jesus\u2019 base of ministry in Galilee (Matt 4:13). On the northwestern shore of the Sea of Galilee. Site of the healing of the centurion\u2019s servant and Peter\u2019s home. Ruins include a 4th-century synagogue."
    },
    {
      "name": "Sea of Galilee",
      "lat": 32.8319,
      "lng": 35.5842,
      "description": "A freshwater lake in northern Israel, also called Lake Kinneret. 21 km long, 13 km wide. Site of Jesus\u2019 calming the storm, walking on water, and calling the first disciples."
    },
    {
      "name": "Bethsaida",
      "lat": 32.9095,
      "lng": 35.6304,
      "description": "Hometown of Philip, Andrew, and Peter (John 1:44). Located near the northern shore of the Sea of Galilee where the Jordan flows in. Site of the healing of a blind man (Mark 8:22\u201326)."
    },
    {
      "name": "Cana",
      "lat": 32.7505,
      "lng": 35.3483,
      "description": "Site of Jesus\u2019 first sign \u2014 turning water into wine at a wedding feast (John 2:1\u201311). Located in the hills of Galilee. Also where Jesus healed the royal official\u2019s son from a distance (John 4:46\u201354)."
    },
    {
      "name": "Bethany",
      "lat": 31.7681,
      "lng": 35.2627,
      "description": "Village on the eastern slope of the Mount of Olives, home of Lazarus, Mary, and Martha (John 11:1). Site of the raising of Lazarus. Jesus frequently stayed here during his final week."
    },
    {
      "name": "Jericho",
      "lat": 31.8571,
      "lng": 35.4604,
      "description": "One of the oldest continuously inhabited cities in the world. Located in the Jordan Valley, 258 m below sea level. Site of the healing of blind Bartimaeus and the conversion of Zacchaeus (Luke 19)."
    },
    {
      "name": "Mount of Olives",
      "lat": 31.7792,
      "lng": 35.2461,
      "description": "A ridge east of Jerusalem overlooking the Temple Mount. Site of Gethsemane, the Ascension, and Jesus\u2019 triumphal entry. Jewish tradition holds that the resurrection will begin here."
    },
    {
      "name": "Gethsemane",
      "lat": 31.7792,
      "lng": 35.2398,
      "description": "A garden at the foot of the Mount of Olives where Jesus prayed before his arrest (Matt 26:36\u201346, John 18:1\u201311). Ancient olive trees still grow on the site today."
    },
    {
      "name": "Pool of Siloam",
      "lat": 31.7735,
      "lng": 35.2354,
      "description": "A ritual pool in the City of David, fed by Hezekiah\u2019s Tunnel. Jesus sent the man born blind to wash here (John 9:7). Excavations in 2004 confirmed its first-century use."
    },
    {
      "name": "Jordan River",
      "lat": 31.8351,
      "lng": 35.5442,
      "description": "The river forming the eastern boundary of Canaan. John baptized here (Matt 3:13\u201317). The traditional baptism site of Jesus, called Qasr el-Yahud, is maintained by the Israeli government."
    },
    {
      "name": "Caesarea Philippi",
      "lat": 33.2493,
      "lng": 35.6968,
      "description": "A city at the foot of Mount Hermon, near the source of the Jordan River. Site of Peter\u2019s confession: \u201cYou are the Christ, the Son of the living God\u201d (Matt 16:13\u201316)."
    },
    {
      "name": "Emmaus",
      "lat": 31.8347,
      "lng": 34.9878,
      "description": "A village about 11 km from Jerusalem. Site of the appearance of the risen Jesus to two disciples who did not recognize him until he broke bread with them (Luke 24:13\u201335)."
    },
    {
      "name": "Mount Sinai",
      "lat": 28.5393,
      "lng": 33.9757,
      "description": "The mountain where God gave the Law to Moses (Exod 19\u201320). Identified with Jebel Musa in the Sinai Peninsula. Also called Horeb. Site of Elijah\u2019s encounter with God (1 Kings 19:8\u201318)."
    },
    {
      "name": "Hebron",
      "lat": 31.5297,
      "lng": 35.0998,
      "description": "One of the oldest cities in Canaan. Abraham settled here (Gen 13:18) and purchased the Cave of Machpelah as a burial site for Sarah. David was crowned king here before moving to Jerusalem."
    },
    {
      "name": "Beersheba",
      "lat": 31.2515,
      "lng": 34.7913,
      "description": "The southernmost city of ancient Israel, marking the border of the settled land (\u201cfrom Dan to Beersheba\u201d). Abraham dug a well here (Gen 21:30\u201331). Site of Isaac\u2019s altar and Jacob\u2019s vision."
    },
    {
      "name": "Mount Carmel",
      "lat": 32.7387,
      "lng": 34.9681,
      "description": "A coastal mountain range in northern Israel. Site of Elijah\u2019s dramatic contest with the 450 prophets of Baal and the 400 prophets of Asherah (1 Kings 18:19\u201340)."
    },
    {
      "name": "Mount Tabor",
      "lat": 32.6861,
      "lng": 35.3908,
      "description": "A dome-shaped mountain in the Jezreel Valley, rising 575 m above sea level. Traditionally identified as the site of the Transfiguration (Matt 17:1\u20138). Site of Deborah and Barak\u2019s victory (Judg 4\u20135)."
    },
    {
      "name": "Shiloh",
      "lat": 32.0562,
      "lng": 35.2932,
      "description": "The location of the Tabernacle for most of the period of the Judges (Josh 18:1). Here Hannah prayed for a son and Samuel was dedicated to the Lord (1 Sam 1\u20133). Destroyed by the Philistines c. 1050 BC."
    },
    {
      "name": "Megiddo",
      "lat": 32.5826,
      "lng": 35.1836,
      "description": "A strategic fortress city guarding the Jezreel Valley pass. Site of many decisive battles through history. Its name gives us \u201cArmageddon\u201d (Har Megiddo, \u201cMount of Megiddo\u201d, Rev 16:16)."
    },
    {
      "name": "Samaria (city)",
      "lat": 32.2726,
      "lng": 35.2006,
      "description": "Capital of the northern kingdom of Israel, built by Omri (1 Kings 16:24). Fell to the Assyrians in 722 BC (2 Kings 17). Rebuilt by Herod the Great and renamed Sebaste. Philip preached here (Acts 8:5)."
    },
    {
      "name": "Caesarea Maritima",
      "lat": 32.5014,
      "lng": 34.8900,
      "description": "A major port city built by Herod the Great. Roman administrative capital of Judea. Cornelius was here when Peter came (Acts 10). Paul was imprisoned here for two years (Acts 23\u201326)."
    },
    {
      "name": "Antioch (Syria)",
      "lat": 36.2021,
      "lng": 36.1603,
      "description": "Third largest city of the Roman Empire. First place where followers of Jesus were called \u201cChristians\u201d (Acts 11:26). Base of Paul\u2019s three missionary journeys. Site of the confrontation between Paul and Peter (Gal 2:11)."
    }
  ]
}
